{"type": "FeatureCollection", "features": [{"type": "Feature", "properties": {"﻿Company Name": "ALLIANCE DIMENSION SDN. BHD.", "Address": "1509 JALAN NAFIRI,KAWASAN PERINDUSTRIAN VALDOR,,14200,SUNGAI BAKAP,PULAU PINANG"}, "geometry": {"type": "Point", "coordinates": [100.4809886, 5.2360792]}}, {"type": "Feature", "properties": {"﻿Company Name": "AOBA ELECTRONICS CO (M) SDN. BHD.", "Address": "LOT 1817, JALAN SEMENYIH, SELANGOR"}, "geometry": {"type": "Point", "coordinates": [101.7930739, 2.9923164]}}, {"type": "Feature", "properties": {"﻿Company Name": "AQ PACK (MALAYSIA) SDN. BHD.", "Address": "NO. 5 JALAN PAHAT 16/8A, SECTION 16, SHAH ALAM 40200, SELANGOR"}, "geometry": {"type": "Point", "coordinates": [101.5080902, 3.0545448]}}, {"type": "Feature", "properties": {"﻿Company Name": "A-TEC ENGINEERING SDN. BHD.", "Address": "NO.37, JALAN BP 6/11,BANDAR BUKIT PUCHONG,,47100,PUCHONG,SELANGOR"}, "geometry": {"type": "Point", "coordinates": [101.6226278, 2.9856301]}}, {"type": "Feature", "properties": {"﻿Company Name": "AUTOMOTIVE INDUSTRIES SDN. BHD.（AISB)", "Address": "LOT 9, JALAN PUCHONG, SECTION 22, LION INDUSTRIAL PARK, 40300 SHAH ALAM, SELANGOR"}, "geometry": {"type": "Point", "coordinates": [101.5548317, 3.0499488]}}, {"type": "Feature", "properties": {"﻿Company Name": "CANON MACHINERY (MALAYSIA) SDN. BHD.", "Address": "LOT 47, PERSIARAN SUBANG HI-TECH, SUBANG HI-TECH, 47500 SUBANG JAYA SELANGOR"}, "geometry": {"type": "Point", "coordinates": [101.5689661, 3.0609002]}}, {"type": "Feature", "properties": {"﻿Company Name": "CLARION MALAYSIA SDN. BHD.", "Address": "BAYAN LEPAS FREE INDUSTRIAL ZONE PHASE 3, 11900 BAYAN LEPAS, PULAU PINANG"}, "geometry": {"type": "Point", "coordinates": [100.2952329, 5.3194422]}}, {"type": "Feature", "properties": {"﻿Company Name": "CSP CORPORATION (M) SDN. BHD.", "Address": "20-B, JALAN SEGAMBUT,,,51200,KUALA LUMPUR,"}, "geometry": {"type": "Point", "coordinates": [101.6770094, 3.182373]}}, {"type": "Feature", "properties": {"﻿Company Name": "DAIHATSU (MALAYSIA) SDN. BHD.", "Address": "LOT 1, JALAN KELULI, SECTION 15, 40200 SHAH ALAM, SELANGOR"}, "geometry": {"type": "Point", "coordinates": [101.5383822, 3.0659677]}}, {"type": "Feature", "properties": {"﻿Company Name": "DAIO INTERNATIONAL  SDN. BHD.", "Address": "NO.21 JALAN INDAH 14/12,TAMAN BUKIT INDAH,,81200,JOHOR BAHRU,JOHOR"}, "geometry": {"type": "Point", "coordinates": [103.6574973, 1.474124]}}, {"type": "Feature", "properties": {"﻿Company Name": "DENKA INFRASTRUCTURE MALAYSIA SDN. BHD.", "Address": "NO 18, JALAN UTAS 15/7, SEKSYEN 15, 40200 SHAH ALAM, SELANGOR"}, "geometry": {"type": "Point", "coordinates": [101.5203746, 3.0583699]}}, {"type": "Feature", "properties": {"﻿Company Name": "EVANSTON MALAYSIA SDN. BHD.", "Address": "16-A JALAN TUN MOHD FUAD ,TAMAN TUN DR ISMAIL,,60000,KUALA LUMPUR,"}, "geometry": {"type": "Point", "coordinates": [101.6292988, 3.1397578]}}, {"type": "Feature", "properties": {"﻿Company Name": "FAN FOOD SDN. BHD.", "Address": "NO. 59 JALAN PERANG,TAMAN PELANGI,,80400,JOHOR BAHRU,JOHOR"}, "geometry": {"type": "Point", "coordinates": [103.7730314, 1.4812739]}}, {"type": "Feature", "properties": {"﻿Company Name": "FANUC MECHATRONICS (M) SDN. BHD.", "Address": "NO. 22, PERSIARAN ASTANA / KU 2, BANDAR BUKIT RAJA, 41050 KLANG, SELANGOR"}, "geometry": {"type": "Point", "coordinates": [101.4519665, 3.0886691]}}, {"type": "Feature", "properties": {"﻿Company Name": "FINE PAPER TAKEO (MALAYSIA) SDN. BHD.", "Address": "51, JALAN 10/91, TAMAN SHAMELIN PERKASA, 56100 KUALA LUMPUR"}, "geometry": {"type": "Point", "coordinates": [101.739754, 3.1259252]}}, {"type": "Feature", "properties": {"﻿Company Name": "FUJIKOSHI-NACHI (M) SDN. BHD.", "Address": "NO.17, JALAN USJ 21/3, 47630 UEP SUBANG JAYA, SELANGOR"}, "geometry": {"type": "Point", "coordinates": [101.5817291, 3.0277475]}}, {"type": "Feature", "properties": {"﻿Company Name": "G2 MARKETING SDN. BHD.", "Address": "11 JALAN 51A/225A,ZON PERINDUSTRIAN PJCT,SEKSYEN 51A,46100,PETALING JAYA,SELANGOR"}, "geometry": {"type": "Point", "coordinates": [101.6282154, 3.0911594]}}, {"type": "Feature", "properties": {"﻿Company Name": "GORAKU MANAGEMENT SDN. BHD.", "Address": "39-G, JALAN 23/70A,DESA SRI HARTAMAS,,50480,KUALA LUMPUR,"}, "geometry": {"type": "Point", "coordinates": [101.6517937, 3.1636127]}}, {"type": "Feature", "properties": {"﻿Company Name": "HAKKO PRODUCTS SDN. BHD.", "Address": "NO. 22 JALAN PEMBERITA U1/49, SEKSYEN U1, TEMASYA INDUSTRIAL PARK, 40150 GLENMARIE, SHAH ALAM, SELANGOR"}, "geometry": {"type": "Point", "coordinates": [101.5769019, 3.0865152]}}, {"type": "Feature", "properties": {"﻿Company Name": "HIDEKI & LOY ENTERPRISE SDN. BHD.", "Address": "64, JLN SULTAN ISMAIL, CHOW KIT, 50250 KUALA LUMPUR, WILAYAH PERSEKUTUAN KUALA LUMPUR"}, "geometry": {"type": "Point", "coordinates": [101.701922, 3.1587575]}}, {"type": "Feature", "properties": {"﻿Company Name": "HIRO PLASTICS ENGINEERING SDN. BHD.", "Address": "LOT 1478, JLN INDUSTRI B6,BANDAR PENAWAR,,81900,KOTA TINGGI,JOHOR"}, "geometry": {"type": "Point", "coordinates": [104.210118, 1.560266]}}, {"type": "Feature", "properties": {"﻿Company Name": "HIROSE ELECTRIC (M) SDN. BHD.", "Address": "LOT 720, JALAN SERENDAH 26/17, HICOM INDUSTRIAL ESTATE, 40400 SHAH ALAM, SELANGOR"}, "geometry": {"type": "Point", "coordinates": [101.5652441, 3.0297944]}}, {"type": "Feature", "properties": {"﻿Company Name": "HIROSHIMA WOOD FRAME SDN. BHD.", "Address": "LOT 38, KANTHAN INDUSTRIAL AREA 31200 CHEMOR PERAK"}, "geometry": {"type": "Point", "coordinates": [101.1091265, 4.7443729]}}, {"type": "Feature", "properties": {"﻿Company Name": "HISAMITSU ELECTRICAL ENGINEERING SDN. BHD.", "Address": "NO. 6, JALAN IDAMAN 1,TAMAN CHERAS IDAMAN,,43000,KAJANG,SELANGOR"}, "geometry": {"type": "Point", "coordinates": [101.7831156, 3.0314389]}}, {"type": "Feature", "properties": {"﻿Company Name": "HITACHI CHEMICAL (JOHOR) SDN. BHD.", "Address": "458, JALAN KELULI, KAWASAN PERINDUSTRIAN PASIR GUDANG, 81700 PASIR GUDANG, JOHOR"}, "geometry": {"type": "Point", "coordinates": [103.920778, 1.4459026]}}, {"type": "Feature", "properties": {"﻿Company Name": "HITACHI TRANSPORT SYSTEM (M) SDN. BHD. / LOGISTEED MALAYSIA", "Address": "LOT 3, JALAN 6C/12, SEKSYEN 16, 43650 BANDAR BARU BANGI, SELANGOR"}, "geometry": {"type": "Point", "coordinates": [101.7610907, 2.9476847]}}, {"type": "Feature", "properties": {"﻿Company Name": "HONDA MALAYSIA SDN. BHD.", "Address": "HICOM PEGOH INDUSTRIAL PARK, 78000 ALOR GAJAH, MELAKA"}, "geometry": {"type": "Point", "coordinates": [102.2059003, 2.4273947]}}, {"type": "Feature", "properties": {"﻿Company Name": "HOSOKAWA MICRON (MALAYSIA) SDN. BHD.", "Address": "109C, JALAN SS 21/1A, DAMANSARA UTAMA, 47400 PETALING JAYA, SELANGOR"}, "geometry": {"type": "Point", "coordinates": [101.6210233, 3.1352545]}}, {"type": "Feature", "properties": {"﻿Company Name": "ICAN BRAKE SYSTEMS SDN. BHD.", "Address": "26, JALAN SASA 37,TAMAN GAYA,,81800,ULU TIRAM,JOHOR"}, "geometry": {"type": "Point", "coordinates": [103.8028551, 1.5753375]}}, {"type": "Feature", "properties": {"﻿Company Name": "IKARI-SHODOKU MALAYSIA SDN. BHD.", "Address": "7, JALAN SHAMELIN NIAGA 1, SHAMELIN HEIGHTS BUSINESS PARK, 56100 KUALA LUMPUR"}, "geometry": {"type": "Point", "coordinates": [101.7368021, 3.1165971]}}, {"type": "Feature", "properties": {"﻿Company Name": "ISETAN OF JAPAN SDN. BHD.", "Address": "LOT 10 SHOPPING CENTER, 50 JALAN SULTAN ISMAIL, 50250 KUALA LUMPUR"}, "geometry": {"type": "Point", "coordinates": [101.7119751, 3.1463523]}}, {"type": "Feature", "properties": {"﻿Company Name": "ISHIDA SYSTEMS (M) SDN. BHD", "Address": "NO.15, JALAN NILAM 2, SUBANG HI-TECH, 47500 SUBANG JAYA, SELANGOR"}, "geometry": {"type": "Point", "coordinates": [101.5625549, 3.0671132]}}, {"type": "Feature", "properties": {"﻿Company Name": "J&M DESIGN CENTER SDN. BHD.", "Address": "52B, JALAN ANGGERIK VANILLA M31/M, KOTA KEMUNING, 40460, SHAH ALAM, SELANGOR"}, "geometry": {"type": "Point", "coordinates": [101.5392682, 3.0036347]}}, {"type": "Feature", "properties": {"﻿Company Name": "JAPAN CHEMICAL (M) SDN. BHD.", "Address": "LOT 13, JALAN TUKANG 16/4, SEKSYEN 16, 40000 SHAH ALAM, SELANGOR"}, "geometry": {"type": "Point", "coordinates": [101.5079176, 3.0569573]}}, {"type": "Feature", "properties": {"﻿Company Name": "JOGS SDN. BHD.", "Address": "24-4, JALAN KUCHAI MAJU 11,KUCHAI ENTREPRENEURS PARK,,58200,KUALA LUMPUR,"}, "geometry": {"type": "Point", "coordinates": [101.6888566, 3.0896834]}}, {"type": "Feature", "properties": {"﻿Company Name": "JUAMP MALAYSIA SDN. BHD.", "Address": "LOT 11, JALAN KUANG BULAN,KEPONG GARDEN INDUSTRIAL AREA,,52100,KUALA  LUMPUR,"}, "geometry": {"type": "Point", "coordinates": [101.6346952, 3.2066611]}}, {"type": "Feature", "properties": {"﻿Company Name": "JVCKENWOOD ELECTRONICS (M) SDN. BHD.", "Address": "8, JALAN PADU, KAWASAN PERINDUSTRIAN TAMPOI, 80350 TAMPOI, JOHOR"}, "geometry": {"type": "Point", "coordinates": [103.7295184, 1.5055472]}}, {"type": "Feature", "properties": {"﻿Company Name": "KADOKAWA GEMPAK STARZ SDN. BHD.", "Address": "17 & 19, JALAN 8/146, BANDAR TASIK SELATAN, 57000 KUALA LUMPUR."}, "geometry": {"type": "Point", "coordinates": [101.7117535, 3.0720988]}}, {"type": "Feature", "properties": {"﻿Company Name": "KAGA COMPONENTS (MALAYSIA) SDN.BHD.", "Address": "1415, LORONG PERUSAHAAN 1, KAWASAN PERUSAHAAN PERAI, 13600 PERAI, PULAU PINANG"}, "geometry": {"type": "Point", "coordinates": [100.431553, 5.3170636]}}, {"type": "Feature", "properties": {"﻿Company Name": "KATO MANUFACTURING (M) SDN. BHD.", "Address": "LOT 1, PERSIARAN RAJA MUDA, SEKSYEN 16, 40200 SHAH ALAM, SELANGOR"}, "geometry": {"type": "Point", "coordinates": [101.5114511, 3.0558618]}}, {"type": "Feature", "properties": {"﻿Company Name": "KINCERA SDN. BHD.", "Address": "NO. 1-1, JALAN SEMENYIH SENTRAL 3, SEMENYIH SENTRAL, 43500 SEMENYIH, SELANGOR"}, "geometry": {"type": "Point", "coordinates": [101.8439019, 2.9447993]}}, {"type": "Feature", "properties": {"﻿Company Name": "KIRISHIMA (M) SDN. BHD.", "Address": "NO:66, JALAN PENANG,,,10000,PENANG,PULAU PINANG"}, "geometry": {"type": "Point", "coordinates": [100.3303308, 5.4169971]}}, {"type": "Feature", "properties": {"﻿Company Name": "KYB-UMW MALAYSIA SDN. BHD.", "Address": "LOT 8, JALAN WAJA 16, 42500 TELOK PANGLIMA GARANG, KUALA LANGAT, SELANGOR"}, "geometry": {"type": "Point", "coordinates": [101.4615871, 2.9180964]}}, {"type": "Feature", "properties": {"﻿Company Name": "KYOWA KANKO KAIHATSU (M) BHD (TEMPLER", "Address": "KM21 JALAN RAWANG, 48000 RAWANG, SELANGOR"}, "geometry": {"type": "Point", "coordinates": [101.555053, 3.3097489]}}, {"type": "Feature", "properties": {"﻿Company Name": "LJYC (MM2H) SDN. BHD.", "Address": "2A, JALAN STESEN SENTRAL 2, KUALA LUMPUR SENTRAL, 50470 KUALA LUMPUR"}, "geometry": {"type": "Point", "coordinates": [101.68645, 3.1360769]}}, {"type": "Feature", "properties": {"﻿Company Name": "M. MORITA MANAGEMENT SDN. BHD.", "Address": "53, JALAN SS 19/6C, SS 19, 47500 SUBANG JAYA, SELANGOR"}, "geometry": {"type": "Point", "coordinates": [101.5796493, 3.0646239]}}, {"type": "Feature", "properties": {"﻿Company Name": "MADANI BIOMASS SDN. BHD.", "Address": "18-01, JALAN BESTARI 4/2,,TAMAN NUSA BESTARI,,,79150,ISKANDAR PUTERI,JOHOR"}, "geometry": {"type": "Point", "coordinates": [103.6659323, 1.4807058]}}, {"type": "Feature", "properties": {"﻿Company Name": "MAKITA POWER TOOLS (MALAYSIA) SDN. BHD.", "Address": "LOT 824, JALAN SUBANG 5, TAMAN PERINDUSTRIAN SUBANG, 47500 SUBANG JAYA, SELANGOR"}, "geometry": {"type": "Point", "coordinates": [101.5967636, 3.0394544]}}, {"type": "Feature", "properties": {"﻿Company Name": "MARICOSA (M) SDN. BHD.", "Address": "NO. 76 & 78,PENANG ROAD,,10000,PENANG,PULAU PINANG"}, "geometry": {"type": "Point", "coordinates": [100.3303308, 5.4169971]}}, {"type": "Feature", "properties": {"﻿Company Name": "MATOMEK PRECISION DIE SDN. BHD.", "Address": "LOT 5, JALAN 6/1, KAWASAN PERINDUSTRIAN SERI KEMBANGAN, 43300 SERI KEMBANGAN, SELANGOR"}, "geometry": {"type": "Point", "coordinates": [101.7153708, 3.0137178]}}, {"type": "Feature", "properties": {"﻿Company Name": "MAYEKAWA (M) SDN. BHD.", "Address": "NO.35, JALAN SERENDAH 26/41, HICOM INDUSTRIAL ESTATE,40400 SHAH ALAM, SELANGOR"}, "geometry": {"type": "Point", "coordinates": [101.5636358, 3.0322397]}}, {"type": "Feature", "properties": {"﻿Company Name": "MAZDA MALAYSIA SDN. BHD.", "Address": "NO 7, JALAN PELUKIS U1/46, TEMASYA INDUSTRIAL PARK, SEKSYEN U1, 40150 SHAH ALAM, SELANGOR"}, "geometry": {"type": "Point", "coordinates": [101.5728435, 3.0859479]}}, {"type": "Feature", "properties": {"﻿Company Name": "MCMCL HOLDINGS SDN. BHD.", "Address": "18 JALAN USJ 11/2H,UEP,,47620,SUBANG JAYA,SELANGOR"}, "geometry": {"type": "Point", "coordinates": [101.5812797, 3.0433423]}}, {"type": "Feature", "properties": {"﻿Company Name": "MEADOWLAND AGRICULTURE (M) SDN. BHD.", "Address": "P-5, PANGSAPURI FANTASIA,KUALA TERLA,,39010,CAMERON HIGHLANDS,PAHANG"}, "geometry": {"type": "Point", "coordinates": [101.4191867, 4.5458197]}}, {"type": "Feature", "properties": {"﻿Company Name": "METABIT SDN. BHD.", "Address": "78A & 78B JALAN EKO BOTANI 3/2,TAMAN EKO BOTANI,,79100,ISKANDAR PUTERI,JOHOR"}, "geometry": {"type": "Point", "coordinates": [103.6190312, 1.4402765]}}, {"type": "Feature", "properties": {"﻿Company Name": "MIMLON SANKI SDN. BHD.", "Address": "NO. 2, LORONG PERDA UTAMA 9,BANDAR PERDA,,14000,BUKIT MERTAJAM,PULAU PINANG"}, "geometry": {"type": "Point", "coordinates": [100.4306461, 5.367388]}}, {"type": "Feature", "properties": {"﻿Company Name": "MINDOCU TECHNOLOGY SDN. BHD.", "Address": "NO 17, JALAN NURI 4,SETIA PEARL ISLAND ,,11900,BAYAN LEPAS,PULAU PINANG"}, "geometry": {"type": "Point", "coordinates": [100.2624649, 5.3076779]}}, {"type": "Feature", "properties": {"﻿Company Name": "MITSUBISHI ELECTRIC (MALAYSIA) SDN. BHD.", "Address": "KAWASAN PERINDUSTRIAN SENAI SENAI JOHOR"}, "geometry": {"type": "Point", "coordinates": [103.6532805, 1.6296979]}}, {"type": "Feature", "properties": {"﻿Company Name": "MITSUBISHI ELECTRIC SALES MALAYSIA SDN. BHD.", "Address": "JALAN 219, PETALING JAYA, 46860 SELANGOR"}, "geometry": {"type": "Point", "coordinates": [101.6187155, 3.0914487]}}, {"type": "Feature", "properties": {"﻿Company Name": "MITSUI HIGH-TEC (M) SDN. BHD.", "Address": "LOT 11-A, JALAN RAGUM 15/17, 40000 SHAH ALAM, SELANGOR"}, "geometry": {"type": "Point", "coordinates": [101.5431384, 3.0687786]}}, {"type": "Feature", "properties": {"﻿Company Name": "MODE STAR SDN. BHD.", "Address": "35-1, JALAN TEMENGGUNG 13/9, BANDAR MAHKOTA CHERAS, 43200, CHERAS, SELANGOR"}, "geometry": {"type": "Point", "coordinates": [101.7896111, 3.0527399]}}, {"type": "Feature", "properties": {"﻿Company Name": "MOMOTARO FOODS SDN. BHD.", "Address": "43, JALAN PBS 14/3, TAMAN PERINDUSTRIAN BUKIT SERDANG, 43300 SERI KEMBANGAN, SELANGOR"}, "geometry": {"type": "Point", "coordinates": [101.6971138, 3.0439173]}}, {"type": "Feature", "properties": {"﻿Company Name": "NAKAGAWA RUBBER INDUSTRIES SDN. BHD.", "Address": "NO. 42, JALAN ANGGERIK MOKARA 31/59, KOTA KEMUNING, 40460 SHAH ALAM, SELANGOR"}, "geometry": {"type": "Point", "coordinates": [101.5426834, 2.9769083]}}, {"type": "Feature", "properties": {"﻿Company Name": "NEWSTAR FRONTIER SDN. BHD.", "Address": "NO.3, JALAN USJ 17/7A,UEP SUBANG JAYA,,47630,SUBANG JAYA,SELANGOR"}, "geometry": {"type": "Point", "coordinates": [101.579136, 3.0321213]}}, {"type": "Feature", "properties": {"﻿Company Name": "NICHIIN FOOD (M) SDN. BHD.", "Address": "NO.26, JALAN OBO EMPAT 33/17D,TAMAN ALAM INDAH,SEKSYEN 33,40400,SHAH ALAM,SELANGOR"}, "geometry": {"type": "Point", "coordinates": [101.5554608, 3.0170008]}}, {"type": "Feature", "properties": {"﻿Company Name": "NIPPON EXPRESS (M) SDN. BHD.", "Address": "LOT 72,PERSIARAN JUBLI PERAK, SEKSYEN 22, 40300 SHAH ALAM, SELANGOR"}, "geometry": {"type": "Point", "coordinates": [101.5488802, 3.0545096]}}, {"type": "Feature", "properties": {"﻿Company Name": "NISSIN INTERNATIONAL LOGISTICS (M) SDN. BHD.", "Address": "NO. 5 JALAN ASTAKA U8/83, SEKSYEN U8, 40150 SHAH ALAM, SELANGOR"}, "geometry": {"type": "Point", "coordinates": [101.5441219, 3.1069726]}}, {"type": "Feature", "properties": {"﻿Company Name": "NISTRADE (M) SDN. BHD.", "Address": "17, JALAN ANGGERIK MOKARA 31/64, KOTA KEMUNING, 40460 SHAH ALAM, SELANGOR"}, "geometry": {"type": "Point", "coordinates": [101.5427022, 2.9739075]}}, {"type": "Feature", "properties": {"﻿Company Name": "NITTO DENKO MATERIALS (MALAYSIA) SDN. BHD.", "Address": "NO.2, PERSIARAN BUDIMAN, SEKSYEN 23, 40300 SHAH ALAM, SELANGOR"}, "geometry": {"type": "Point", "coordinates": [101.5340209, 3.0441564]}}, {"type": "Feature", "properties": {"﻿Company Name": "NOVALITE SDN. BHD.", "Address": "LOT 10, JALAN API-API 26/1,HICOM INDUSTRIAL ESTATE,SECTION 26,40400,SHAH ALAM,SELANGOR"}, "geometry": {"type": "Point", "coordinates": [101.5499302, 3.0411312]}}, {"type": "Feature", "properties": {"﻿Company Name": "OKURA FLEXIBLE AUTOMATION SYSTEMS (M) SDN. BHD.", "Address": "NO.24, JALAN SERENDAH 26/41, HICOM INDUSTRIAL ESTATE, 40400 SHAH ALAM, SELANGOR"}, "geometry": {"type": "Point", "coordinates": [101.5636358, 3.0322397]}}, {"type": "Feature", "properties": {"﻿Company Name": "ONKYO ASIA ELECTRONICS SDN. BHD.", "Address": "1, JALAN P/5, KAWASAN PERINDUSTRIAN SEKSYEN 13, 43650 BANDAR BARU BANGI, SELANGOR"}, "geometry": {"type": "Point", "coordinates": [101.7564447, 2.9503767]}}, {"type": "Feature", "properties": {"﻿Company Name": "ORGANO (ASIA) SDN. BHD.", "Address": "NO. 49, JALAN BAGAN TERAP 26/11, SEKSYEN 26, 40400 SHAH ALAM, SELANGOR"}, "geometry": {"type": "Point", "coordinates": [101.5583808, 3.0262605]}}, {"type": "Feature", "properties": {"﻿Company Name": "ORTUSTECH (MALAYSIA) SDN. BHD.", "Address": "LOT 760, JALAN HAJI SIRAT, BATU 4, 42100 KLANG, SELANGOR"}, "geometry": {"type": "Point", "coordinates": [101.4092399, 3.0783962]}}, {"type": "Feature", "properties": {"﻿Company Name": "PANASONIC MALAYSIA SDN. BHD.", "Address": "LOT 10, JALAN 13/2, 46200 PETALING JAYA, SELANGOR"}, "geometry": {"type": "Point", "coordinates": [101.6386421, 3.1128501]}}, {"type": "Feature", "properties": {"﻿Company Name": "PRESTIGE INTERNATIONAL INC.", "Address": "46 JALAN TERASEK, BANGSAR 59100, KUALA LUMPUR"}, "geometry": {"type": "Point", "coordinates": [101.664569, 3.133871]}}, {"type": "Feature", "properties": {"﻿Company Name": "PUNCAK BUMI JADI SDN. BHD.", "Address": "55-2, JALAN EQUINE 10, TAMAN EQUINE, 43300, SERI KEMBANGAN, SELANGOR"}, "geometry": {"type": "Point", "coordinates": [101.6798514, 3.007707]}}, {"type": "Feature", "properties": {"﻿Company Name": "RENESAS SEMICONDUCTOR KL SDN. BHD.", "Address": "KM15 JALAN BANTING, 42500 TELUK PANGLIMA GARANG, SELANGOR"}, "geometry": {"type": "Point", "coordinates": [101.4741618, 2.916282]}}, {"type": "Feature", "properties": {"﻿Company Name": "RINNE TECHNOLOGIES AND CONSULTING SDN. BHD.", "Address": "NO. 108 JALAN DESA SEPUTEH 1,,,58000,KUALA  LUMPUR,"}, "geometry": {"type": "Point", "coordinates": [101.6889136, 3.1124998]}}, {"type": "Feature", "properties": {"﻿Company Name": "SAKATA INX (M) SDN. BHD.", "Address": "LOT 65, JALAN TELUK GADUNG 27/93, SEKSYEN 27, 40000 SHAH ALAM, SELANGOR"}, "geometry": {"type": "Point", "coordinates": [101.5581382, 3.0170804]}}, {"type": "Feature", "properties": {"﻿Company Name": "SANDEN AIR CONDITIONING(M) SDN. BHD..", "Address": "NO. 16, JALAN PEMAJU U1/15, SEKSYEN U1, HICOM-GLENMARIE INDUSTRIAL PARK, 40150 SHAH ALAM,SELANGOR"}, "geometry": {"type": "Point", "coordinates": [101.5659972, 3.094488]}}, {"type": "Feature", "properties": {"﻿Company Name": "SANKYU (MALAYSIA) SDN. BHD.", "Address": "LOT 4, JALAN 215, 46050  PETALING JAYA, SELANGOR"}, "geometry": {"type": "Point", "coordinates": [101.6375981, 3.0930282]}}, {"type": "Feature", "properties": {"﻿Company Name": "SERVICE COMPANY   KANIX INDUSTRIES (M) SDN. BHD.", "Address": "NO 62, JALAN RIANG 21, TAMAN PERINDUSTRIAN GEMBIRA, 81200 JOHOR BAHRU, JOHOR"}, "geometry": {"type": "Point", "coordinates": [103.7440306, 1.5259259]}}, {"type": "Feature", "properties": {"﻿Company Name": "SETOUCHI FOOD INDUSTRIES SDN. BHD.", "Address": "26, JALAN BP 6/9, BANDAR BUKIT PUCHONG, 47120 PUCHONG, SELANGOR"}, "geometry": {"type": "Point", "coordinates": [101.6226157, 2.9848744]}}, {"type": "Feature", "properties": {"﻿Company Name": "SHIN-ETSU (MALAYSIA) SDN. BHD.", "Address": "LOT 50, JALAN SERENDAH 26/17, HICOM INDUSTRIAL ESTATE, 40400 SHAH ALAM, SELANGOR"}, "geometry": {"type": "Point", "coordinates": [101.5652441, 3.0297944]}}, {"type": "Feature", "properties": {"﻿Company Name": "SHINKO ELECTRONICS (M) SDN. BHD.", "Address": "LOT 717, JALAN SERENDAH 26/17, SEKSYEN 26, 40400 SHAH ALAM, SELANGOR"}, "geometry": {"type": "Point", "coordinates": [101.5652441, 3.0297944]}}, {"type": "Feature", "properties": {"﻿Company Name": "SUMITOMO ELECTRIC INTERCONNECT PRODUCTS (M) SDN. BHD.", "Address": "NO.1, JALAN ANGKASA MAS UTAMA, KAWASAN PERINDUSTRIAN TEBRAU II, 81100 JOHOR BAHRU, JOHOR"}, "geometry": {"type": "Point", "coordinates": [103.7742358, 1.5327476]}}, {"type": "Feature", "properties": {"﻿Company Name": "SUNCHIRIN INDUSTRIES (MALAYSIA) BERHAD", "Address": "LOT 7, JALAN API-API 26/1, HICOM INDUSTRIAL ESTATE, SECTION 26, 40400 SHAH ALAM, SELANGOR"}, "geometry": {"type": "Point", "coordinates": [101.5499302, 3.0411312]}}, {"type": "Feature", "properties": {"﻿Company Name": "SUPER SUSHI SDN. BHD.", "Address": "NO 1, JALAN TP 3,TAMAN PERINDUSTRIAN UEP,,47620,SUBANG JAYA,SELANGOR"}, "geometry": {"type": "Point", "coordinates": [101.5684774, 3.0421604]}}, {"type": "Feature", "properties": {"﻿Company Name": "SYNZTEC (MALAYSIA) SDN. BHD.", "Address": "LOT 5, JALAN LADA SULAH 16/11, SEKSYEN 16, 40000 SHAH ALAM, SELANGOR"}, "geometry": {"type": "Point", "coordinates": [101.5002388, 3.0616734]}}, {"type": "Feature", "properties": {"﻿Company Name": "TAKAHATA PRECISION MOULDING SDN. BHD.", "Address": "LOT 26, JALAN CJ 1/1, KAWASAN PERINDUSTRIAN CHERAS JAYA, 43200 CHERAS, SELANGOR"}, "geometry": {"type": "Point", "coordinates": [101.7677334, 3.0226775]}}, {"type": "Feature", "properties": {"﻿Company Name": "TAMURA ELECTRONICS (M) SDN. BHD.", "Address": "2, JALAN HALBA 16/16, SEKSYEN 16, 40200 SHAH ALAM, SELANGOR"}, "geometry": {"type": "Point", "coordinates": [101.4972151, 3.0606226]}}, {"type": "Feature", "properties": {"﻿Company Name": "TATEYAMA AUTO MACHINE (M) SDN. BHD.", "Address": "LOT 2. JALAN PELABUR 23/1, SEKSYEN 23,40300 SHAH ALAM, SELANGOR"}, "geometry": {"type": "Point", "coordinates": [101.5379115, 3.0446541]}}, {"type": "Feature", "properties": {"﻿Company Name": "TFS NETWORK SDN. BHD.", "Address": "C-1-26, JALAN PJU 1A/3K,TAIPAN 1 ARA DAMANSARA,,47500,PETALING JAYA,SELANGOR"}, "geometry": {"type": "Point", "coordinates": [101.5907345, 3.1202359]}}, {"type": "Feature", "properties": {"﻿Company Name": "TIGER SHOJI SDN. BHD.", "Address": "NO. 20, JALAN JURUHEBAH U1/50, SECTION U1, TEMASYA INDUSTRIAL PARK, 40150 SHAH ALAM, SELANGOR"}, "geometry": {"type": "Point", "coordinates": [101.5780424, 3.086936]}}, {"type": "Feature", "properties": {"﻿Company Name": "TOKYO GAS ASIA SDN. BHD. (M)", "Address": "30, JLN SULTAN ISMAIL, BUKIT BINTANG, 55100 KUALA LUMPUR"}, "geometry": {"type": "Point", "coordinates": [101.7115126, 3.1497332]}}, {"type": "Feature", "properties": {"﻿Company Name": "TOSHIBA TEC MALAYSIA MANUFACTURING SDN. BHD.", "Address": "NO. 5, JALAN JURUBINA U1/18, SEKSYEN U1, HICOM GLENMARIE INDUSTRIAL PARK, 40150 SHAH ALAM, SELANGOR"}, "geometry": {"type": "Point", "coordinates": [101.5621729, 3.0939753]}}, {"type": "Feature", "properties": {"﻿Company Name": "TOSHIBA TRANSMISSION & DISTRIBUTION SYSTEM ASIA SDN. BHD.", "Address": "LOT22, JALAN TEKNOLOGI, TAMAN SAINS SELANGOR 1, KOTA DAMANSARA, 47810 PETALING JAYA, SELANGOR"}, "geometry": {"type": "Point", "coordinates": [101.5719964, 3.1493346]}}, {"type": "Feature", "properties": {"﻿Company Name": "TOYOCHEM SPECIALTY CHEMICAL SDN. BHD.", "Address": "10, JALAN PENGAPIT 15/19, SECTION 15, 40000 SHAH ALAM, SELANGOR"}, "geometry": {"type": "Point", "coordinates": [101.5478602, 3.0680861]}}, {"type": "Feature", "properties": {"﻿Company Name": "TOYOTA AUTO BODY (MALAYSIA) SDN. BHD.", "Address": "LOT 11, PERSIARAN PERUSAHAAN, SEKSYEN 23, 40300 SHAH ALAM, SELANGOR"}, "geometry": {"type": "Point", "coordinates": [101.5413446, 3.0483493]}}, {"type": "Feature", "properties": {"﻿Company Name": "TOYOTA TSUSHO TECHNOPARK (M) SDN. BHD.", "Address": "105, JLN AMPANG, KUALA AMPANG, 50450 KUALA LUMPUR, WILAYAH PERSEKUTUAN KUALA LUMPUR"}, "geometry": {"type": "Point", "coordinates": [101.7501223, 3.1574972]}}, {"type": "Feature", "properties": {"﻿Company Name": "UMETOKU (MALAYSIA) SDN. BHD.", "Address": "NO 2, JALAN ANGGERIK MOKARA 31/59 , KOTA KEMUNING, SECTION 31, 40460 SHAH ALAM, SELANGOR"}, "geometry": {"type": "Point", "coordinates": [101.5426834, 2.9769083]}}, {"type": "Feature", "properties": {"﻿Company Name": "VIRTUAL PROMOTIONS (ASIA) SDN. BHD.", "Address": "16A, JALAN TUN MOHD FUAD,TAMAN TUN DR.ISMAIL,,60000,KUALA LUMPUR,"}, "geometry": {"type": "Point", "coordinates": [101.6292988, 3.1397578]}}, {"type": "Feature", "properties": {"﻿Company Name": "WISE GLOBAL DEVELOPMENT  SDN. BHD.", "Address": "42-2 JALAN RAMPAI NIAGA 4 MEDAN NIAGA RAMPAI - 53300 KUALA LUMPUR, KUALA LUMPUR"}, "geometry": {"type": "Point", "coordinates": [101.7284617, 3.1986319]}}, {"type": "Feature", "properties": {"﻿Company Name": "YAKULT (MALAYSIA) SDN. BHD.", "Address": "LOT NO. 7, JALAN JURURANCANG U1/21, SEKSYEN U1, HICOM GLENMARIE INDUSTRIAL PARK, 40150 SHAH ALAM, SELANGOR"}, "geometry": {"type": "Point", "coordinates": [101.563013, 3.089649]}}, {"type": "Feature", "properties": {"﻿Company Name": "YOSHIE HOLDING SDN. BHD.", "Address": "LOT 1478, JALAN INDUSTRI B6,BANDAR PENAWAR,,81900,KOTA TINGGI,JOHOR"}, "geometry": {"type": "Point", "coordinates": [104.210118, 1.560266]}}, {"type": "Feature", "properties": {"﻿Company Name": "YUASA MECHATRONICS (M) SDN. BHD.", "Address": "NO.31, JALAN KARTUNIS U1/47 TEMASYA INDUSTRIAL PARK SECTION U1, GLENMARIE 40150 SHAH ALAM, SELANGOR"}, "geometry": {"type": "Point", "coordinates": [101.5748991, 3.0859125]}}, {"type": "Feature", "properties": {"﻿Company Name": "YUFU GOSEI (M) SDN. BHD.", "Address": "LOT 9, JALAN PERUSAHAAN 4,KAWASAN PERUSAHAAN BATU CAVES,,68100,BATU CAVES,SELANGOR"}, "geometry": {"type": "Point", "coordinates": [101.6798758, 3.2293879]}}]}